[
  {
    "code": "AF",
    "name": "Afghanistan",
    "lat": 33.9391,
    "lon": 67.71
  },
  {
    "code": "AL",
    "name": "Albania",
    "lat": 41.1533,
    "lon": 20.1683
  },
  {
    "code": "DZ",
    "name": "Algeria",
    "lat": 28.0339,
    "lon": 1.6596
  },
  {
    "code": "AS",
    "name": "American Samoa",
    "lat": -14.2709,
    "lon": -170.1322
  },
  {
    "code": "AD",
    "name": "Andorra",
    "lat": 42.5063,
    "lon": 1.5218
  },
  {
    "code": "AO",
    "name": "Angola",
    "lat": -11.2027,
    "lon": 17.8739
  },
  {
    "code": "AG",
    "name": "Antigua and Barbuda",
    "lat": 17.0608,
    "lon": -61.7964
  },
  {
    "code": "AR",
    "name": "Argentina",
    "lat": -38.4161,
    "lon": -63.6167
  },
  {
    "code": "AM",
    "name": "Armenia",
    "lat": 40.0691,
    "lon": 45.0382
  },
  {
    "code": "AU",
    "name": "Australia",
    "lat": -25.2744,
    "lon": 133.7751
  },
  {
    "code": "AT",
    "name": "Austria",
    "lat": 47.5162,
    "lon": 14.5501
  },
  {
    "code": "AZ",
    "name": "Azerbaijan",
    "lat": 40.1431,
    "lon": 47.5769
  },
  {
    "code": "BS",
    "name": "Bahamas",
    "lat": 25.0343,
    "lon": -77.3963
  },
  {
    "code": "BH",
    "name": "Bahrain",
    "lat": 25.9304,
    "lon": 50.6378
  },
  {
    "code": "BD",
    "name": "Bangladesh",
    "lat": 23.685,
    "lon": 90.3563
  },
  {
    "code": "BB",
    "name": "Barbados",
    "lat": 13.1939,
    "lon": -59.5432
  },
  {
    "code": "BY",
    "name": "Belarus",
    "lat": 53.7098,
    "lon": 27.9534
  },
  {
    "code": "BE",
    "name": "Belgium",
    "lat": 50.8503,
    "lon": 4.3517
  },
  {
    "code": "BZ",
    "name": "Belize",
    "lat": 17.1899,
    "lon": -88.4976
  },
  {
    "code": "BJ",
    "name": "Benin",
    "lat": 9.3077,
    "lon": 2.3158
  },
  {
    "code": "BT",
    "name": "Bhutan",
    "lat": 27.5142,
    "lon": 90.4336
  },
  {
    "code": "BO",
    "name": "Bolivia",
    "lat": -16.2902,
    "lon": -63.5887
  },
  {
    "code": "BA",
    "name": "Bosnia and Herzegovina",
    "lat": 43.9159,
    "lon": 17.6791
  },
  {
    "code": "BW",
    "name": "Botswana",
    "lat": -22.3285,
    "lon": 24.6849
  },
  {
    "code": "BR",
    "name": "Brazil",
    "lat": -14.235,
    "lon": -51.9253
  },
  {
    "code": "BN",
    "name": "Brunei Darussalam",
    "lat": 4.5353,
    "lon": 114.7277
  },
  {
    "code": "BG",
    "name": "Bulgaria",
    "lat": 42.7339,
    "lon": 25.4858
  },
  {
    "code": "BF",
    "name": "Burkina Faso",
    "lat": 12.2383,
    "lon": -1.5616
  },
  {
    "code": "BI",
    "name": "Burundi",
    "lat": -3.3731,
    "lon": 29.9189
  },
  {
    "code": "KH",
    "name": "Cambodia",
    "lat": 12.5657,
    "lon": 104.991
  },
  {
    "code": "CM",
    "name": "Cameroon",
    "lat": 7.3697,
    "lon": 12.3547
  },
  {
    "code": "CA",
    "name": "Canada",
    "lat": 56.1304,
    "lon": -106.3468
  },
  {
    "code": "CV",
    "name": "Cabo Verde",
    "lat": 16.5388,
    "lon": -23.0418
  },
  {
    "code": "CF",
    "name": "Central African Republic",
    "lat": 6.6111,
    "lon": 20.9394
  },
  {
    "code": "TD",
    "name": "Chad",
    "lat": 15.4542,
    "lon": 18.7322
  },
  {
    "code": "CL",
    "name": "Chile",
    "lat": -35.6751,
    "lon": -71.543
  },
  {
    "code": "CN",
    "name": "China",
    "lat": 35.8617,
    "lon": 104.1954
  },
  {
    "code": "CO",
    "name": "Colombia",
    "lat": 4.5709,
    "lon": -74.2973
  },
  {
    "code": "KM",
    "name": "Comoros",
    "lat": -11.6455,
    "lon": 43.3333
  },
  {
    "code": "CG",
    "name": "Congo",
    "lat": -0.228,
    "lon": 15.8277
  },
  {
    "code": "CD",
    "name": "Congo, Democratic Republic",
    "lat": -4.0383,
    "lon": 21.7587
  },
  {
    "code": "CR",
    "name": "Costa Rica",
    "lat": 9.7489,
    "lon": -83.7534
  },
  {
    "code": "HR",
    "name": "Croatia",
    "lat": 45.1,
    "lon": 15.2
  },
  {
    "code": "CU",
    "name": "Cuba",
    "lat": 21.5218,
    "lon": -77.7812
  },
  {
    "code": "CY",
    "name": "Cyprus",
    "lat": 35.1264,
    "lon": 33.4299
  },
  {
    "code": "CZ",
    "name": "Czech Republic",
    "lat": 49.8175,
    "lon": 15.473
  },
  {
    "code": "DK",
    "name": "Denmark",
    "lat": 56.2639,
    "lon": 9.5018
  },
  {
    "code": "DJ",
    "name": "Djibouti",
    "lat": 11.8251,
    "lon": 42.5903
  },
  {
    "code": "DM",
    "name": "Dominica",
    "lat": 15.4149,
    "lon": -61.3709
  },
  {
    "code": "DO",
    "name": "Dominican Republic",
    "lat": 18.7357,
    "lon": -70.1627
  },
  {
    "code": "EC",
    "name": "Ecuador",
    "lat": -1.8312,
    "lon": -78.1834
  },
  {
    "code": "EG",
    "name": "Egypt",
    "lat": 26.8206,
    "lon": 30.8025
  },
  {
    "code": "SV",
    "name": "El Salvador",
    "lat": 13.7942,
    "lon": -88.8965
  },
  {
    "code": "GQ",
    "name": "Equatorial Guinea",
    "lat": 1.6508,
    "lon": 10.2679
  },
  {
    "code": "ER",
    "name": "Eritrea",
    "lat": 15.1794,
    "lon": 39.7823
  },
  {
    "code": "EE",
    "name": "Estonia",
    "lat": 58.5953,
    "lon": 25.0136
  },
  {
    "code": "SZ",
    "name": "Eswatini",
    "lat": -26.5225,
    "lon": 31.4659
  },
  {
    "code": "ET",
    "name": "Ethiopia",
    "lat": 9.145,
    "lon": 40.4897
  },
  {
    "code": "FJ",
    "name": "Fiji",
    "lat": -16.5782,
    "lon": 179.4144
  },
  {
    "code": "FI",
    "name": "Finland",
    "lat": 61.9241,
    "lon": 25.7482
  },
  {
    "code": "FR",
    "name": "France",
    "lat": 46.6034,
    "lon": 1.8883
  },
  {
    "code": "GA",
    "name": "Gabon",
    "lat": -0.8037,
    "lon": 11.6094
  },
  {
    "code": "GM",
    "name": "Gambia",
    "lat": 13.4432,
    "lon": -15.3101
  },
  {
    "code": "GE",
    "name": "Georgia",
    "lat": 42.3154,
    "lon": 43.3569
  },
  {
    "code": "DE",
    "name": "Germany",
    "lat": 51.1657,
    "lon": 10.4515
  },
  {
    "code": "GH",
    "name": "Ghana",
    "lat": 7.9465,
    "lon": -1.0232
  },
  {
    "code": "GR",
    "name": "Greece",
    "lat": 39.0742,
    "lon": 21.8243
  },
  {
    "code": "GT",
    "name": "Guatemala",
    "lat": 15.7835,
    "lon": -90.2308
  },
  {
    "code": "GN",
    "name": "Guinea",
    "lat": 9.9456,
    "lon": -9.6966
  },
  {
    "code": "GW",
    "name": "Guinea-Bissau",
    "lat": 11.8037,
    "lon": -15.1804
  },
  {
    "code": "GY",
    "name": "Guyana",
    "lat": 4.8604,
    "lon": -58.9302
  },
  {
    "code": "HT",
    "name": "Haiti",
    "lat": 18.9712,
    "lon": -72.2852
  },
  {
    "code": "HN",
    "name": "Honduras",
    "lat": 13.6416,
    "lon": -86.4751
  },
  {
    "code": "HU",
    "name": "Hungary",
    "lat": 47.1625,
    "lon": 19.5033
  },
  {
    "code": "IS",
    "name": "Iceland",
    "lat": 64.9631,
    "lon": -19.0208
  },
  {
    "code": "IN",
    "name": "India",
    "lat": 20.5937,
    "lon": 78.9629
  },
  {
    "code": "ID",
    "name": "Indonesia",
    "lat": -0.7893,
    "lon": 113.9213
  },
  {
    "code": "IR",
    "name": "Iran",
    "lat": 32.4279,
    "lon": 53.688
  },
  {
    "code": "IQ",
    "name": "Iraq",
    "lat": 33.2232,
    "lon": 43.6793
  },
  {
    "code": "IE",
    "name": "Ireland",
    "lat": 53.3331,
    "lon": -7.0
  },
  {
    "code": "IT",
    "name": "Italy",
    "lat": 41.8719,
    "lon": 12.5674
  },
  {
    "code": "JM",
    "name": "Jamaica",
    "lat": 18.1096,
    "lon": -77.2975
  },
  {
    "code": "JP",
    "name": "Japan",
    "lat": 36.2048,
    "lon": 138.2529
  },
  {
    "code": "JO",
    "name": "Jordan",
    "lat": 30.5852,
    "lon": 36.2384
  },
  {
    "code": "KW",
    "name": "Kuwait",
    "lat": 29.3117,
    "lon": 47.4818
  },
  {
    "code": "LB",
    "name": "Lebanon",
    "lat": 33.8547,
    "lon": 35.8623
  },
  {
    "code": "LY",
    "name": "Libya",
    "lat": 26.3351,
    "lon": 17.2283
  },
  {
    "code": "MR",
    "name": "Mauritania",
    "lat": 21.0079,
    "lon": -10.9408
  },
  {
    "code": "MA",
    "name": "Morocco",
    "lat": 31.7917,
    "lon": -7.0926
  },
  {
    "code": "OM",
    "name": "Oman",
    "lat": 21.4735,
    "lon": 55.9754
  },
  {
    "code": "PS",
    "name": "Palestine",
    "lat": 31.9522,
    "lon": 35.2332
  },
  {
    "code": "QA",
    "name": "Qatar",
    "lat": 25.3548,
    "lon": 51.1839
  },
  {
    "code": "SA",
    "name": "Saudi Arabia",
    "lat": 23.8859,
    "lon": 45.0792
  },
  {
    "code": "SO",
    "name": "Somalia",
    "lat": 5.1521,
    "lon": 46.1996
  },
  {
    "code": "SD",
    "name": "Sudan",
    "lat": 12.8628,
    "lon": 30.2176
  },
  {
    "code": "SY",
    "name": "Syria",
    "lat": 34.8021,
    "lon": 38.9968
  },
  {
    "code": "TN",
    "name": "Tunisia",
    "lat": 33.8869,
    "lon": 9.5375
  },
  {
    "code": "AE",
    "name": "United Arab Emirates",
    "lat": 23.4241,
    "lon": 53.8478
  },
  {
    "code": "YE",
    "name": "Yemen",
    "lat": 15.5527,
    "lon": 48.5164
  }
]
